{
"type": "FeatureCollection",
"name": "aurora_cafe",
"crs": { "type": "name", "properties": { "name": "urn:ogc:def:crs:OGC:1.3:CRS84" } },
"features": [
{ "type": "Feature", "properties": { "amenity": "cafe", "name": "Starbucks", "id": 1318370692, "shop": null, "building": null }, "geometry": { "type": "Point", "coordinates": [ -104.773132, 39.6522076 ] } },
{ "type": "Feature", "properties": { "amenity": "cafe", "name": "Starbucks", "id": 2525008771, "shop": null, "building": null }, "geometry": { "type": "Point", "coordinates": [ -104.8627052, 39.7116346 ] } },
{ "type": "Feature", "properties": { "amenity": "cafe", "name": "Starbucks", "id": 2919732958, "shop": null, "building": null }, "geometry": { "type": "Point", "coordinates": [ -104.814452, 39.7404192 ] } },
{ "type": "Feature", "properties": { "amenity": "cafe", "name": "Dazbog Coffee", "id": 2960664617, "shop": null, "building": null }, "geometry": { "type": "Point", "coordinates": [ -104.841882, 39.7438525 ] } },
{ "type": "Feature", "properties": { "amenity": "cafe", "name": "Bookstore Brew", "id": 2962277309, "shop": null, "building": null }, "geometry": { "type": "Point", "coordinates": [ -104.8372329, 39.7466497 ] } },
{ "type": "Feature", "properties": { "amenity": "cafe", "name": "Dazbog Coffee", "id": 2968411529, "shop": null, "building": null }, "geometry": { "type": "Point", "coordinates": [ -104.8404069, 39.7422303 ] } },
{ "type": "Feature", "properties": { "amenity": "cafe", "name": "Starbucks", "id": 2969758172, "shop": null, "building": null }, "geometry": { "type": "Point", "coordinates": [ -104.8349338, 39.745186 ] } },
{ "type": "Feature", "properties": { "amenity": "cafe", "name": "Lobby Latte", "id": 2985234887, "shop": null, "building": null }, "geometry": { "type": "Point", "coordinates": [ -104.8397984, 39.742456 ] } },
{ "type": "Feature", "properties": { "amenity": "cafe", "name": "Garden View Cafe", "id": 2985267511, "shop": null, "building": null }, "geometry": { "type": "Point", "coordinates": [ -104.8420783, 39.7426581 ] } },
{ "type": "Feature", "properties": { "amenity": "cafe", "name": "Caribou Coffee", "id": 2988989421, "shop": null, "building": null }, "geometry": { "type": "Point", "coordinates": [ -104.827901, 39.7399549 ] } },
{ "type": "Feature", "properties": { "amenity": "cafe", "name": "Nu Espresso & Tea Bar", "id": 2990422199, "shop": null, "building": null }, "geometry": { "type": "Point", "coordinates": [ -104.837779, 39.7491338 ] } },
{ "type": "Feature", "properties": { "amenity": "cafe", "name": "City Donuts", "id": 2991679101, "shop": null, "building": null }, "geometry": { "type": "Point", "coordinates": [ -104.846891, 39.7275391 ] } },
{ "type": "Feature", "properties": { "amenity": "cafe", "name": "Snowl Snow Bowl", "id": 3125184700, "shop": null, "building": null }, "geometry": { "type": "Point", "coordinates": [ -104.864898, 39.681539 ] } },
{ "type": "Feature", "properties": { "amenity": "cafe", "name": "The French Press", "id": 3567316271, "shop": null, "building": null }, "geometry": { "type": "Point", "coordinates": [ -104.810382, 39.6742437 ] } },
{ "type": "Feature", "properties": { "amenity": "cafe", "name": "Heritage Cafe", "id": 3678127410, "shop": null, "building": null }, "geometry": { "type": "Point", "coordinates": [ -104.7237038, 39.5757681 ] } },
{ "type": "Feature", "properties": { "amenity": "cafe", "name": "The Donut House", "id": 4168570277, "shop": null, "building": null }, "geometry": { "type": "Point", "coordinates": [ -104.850786, 39.6600686 ] } },
{ "type": "Feature", "properties": { "amenity": "cafe", "name": "Beantree Coffee", "id": 4595256158, "shop": null, "building": null }, "geometry": { "type": "Point", "coordinates": [ -104.846605, 39.6752221 ] } },
{ "type": "Feature", "properties": { "amenity": "cafe", "name": "Paprika Cafe", "id": 4944133021, "shop": null, "building": null }, "geometry": { "type": "Point", "coordinates": [ -104.8371721, 39.6960214 ] } },
{ "type": "Feature", "properties": { "amenity": "cafe", "name": "Starbucks", "id": 5029710200, "shop": null, "building": null }, "geometry": { "type": "Point", "coordinates": [ -104.8210518, 39.7154716 ] } },
{ "type": "Feature", "properties": { "amenity": "cafe", "name": "Starbucks", "id": 5070574488, "shop": null, "building": null }, "geometry": { "type": "Point", "coordinates": [ -104.8653516, 39.6917312 ] } },
{ "type": "Feature", "properties": { "amenity": "cafe", "name": "Grace French Cafe", "id": 5616338017, "shop": null, "building": null }, "geometry": { "type": "Point", "coordinates": [ -104.838477, 39.6580233 ] } },
{ "type": "Feature", "properties": { "amenity": "cafe", "name": "HiRa cafe", "id": 5712523654, "shop": null, "building": null }, "geometry": { "type": "Point", "coordinates": [ -104.8631019, 39.6744294 ] } },
{ "type": "Feature", "properties": { "amenity": "cafe", "name": "Starbucks", "id": 5939234027, "shop": null, "building": null }, "geometry": { "type": "Point", "coordinates": [ -104.7244075, 39.5799327 ] } },
{ "type": "Feature", "properties": { "amenity": "cafe", "name": "Starbucks", "id": 5955467562, "shop": null, "building": null }, "geometry": { "type": "Point", "coordinates": [ -104.6873885, 39.5872156 ] } },
{ "type": "Feature", "properties": { "amenity": "cafe", "name": "Starbucks", "id": 6260113423, "shop": null, "building": null }, "geometry": { "type": "Point", "coordinates": [ -104.7091207, 39.6017816 ] } },
{ "type": "Feature", "properties": { "amenity": "cafe", "name": "Oob Lines", "id": 6323415777, "shop": null, "building": null }, "geometry": { "type": "Point", "coordinates": [ -104.815267, 39.7667665 ] } },
{ "type": "Feature", "properties": { "amenity": "cafe", "name": "Volcano Tea House", "id": 6760643922, "shop": null, "building": null }, "geometry": { "type": "Point", "coordinates": [ -104.8622915, 39.6657719 ] } },
{ "type": "Feature", "properties": { "amenity": "cafe", "name": "Starbucks", "id": 6765380083, "shop": null, "building": null }, "geometry": { "type": "Point", "coordinates": [ -104.840951, 39.7399027 ] } },
{ "type": "Feature", "properties": { "amenity": "cafe", "name": "Starbucks", "id": 6859355195, "shop": null, "building": null }, "geometry": { "type": "Point", "coordinates": [ -104.844796, 39.6615102 ] } },
{ "type": "Feature", "properties": { "amenity": "cafe", "name": "Starbucks", "id": 8511346668, "shop": null, "building": null }, "geometry": { "type": "Point", "coordinates": [ -104.7217046, 39.5817315 ] } },
{ "type": "Feature", "properties": { "amenity": "cafe", "name": "Starbucks", "id": 9041940247, "shop": null, "building": null }, "geometry": { "type": "Point", "coordinates": [ -104.7746695, 39.764247 ] } },
{ "type": "Feature", "properties": { "amenity": "cafe", "name": "Forest Coffee & Ice creams Denver", "id": 9064157844, "shop": null, "building": null }, "geometry": { "type": "Point", "coordinates": [ -104.8107759, 39.6332124 ] } },
{ "type": "Feature", "properties": { "amenity": "cafe", "name": "Dutch Bros. Coffee", "id": 9795703539, "shop": null, "building": null }, "geometry": { "type": "Point", "coordinates": [ -104.793306, 39.6740836 ] } },
{ "type": "Feature", "properties": { "amenity": "cafe", "name": "Coffee Story", "id": 9800657517, "shop": null, "building": null }, "geometry": { "type": "Point", "coordinates": [ -104.8656333, 39.6758759 ] } },
{ "type": "Feature", "properties": { "amenity": "cafe", "name": null, "id": 9868385853, "shop": null, "building": null }, "geometry": { "type": "Point", "coordinates": [ -104.7201219, 39.5644645 ] } },
{ "type": "Feature", "properties": { "amenity": "cafe", "name": "Dutch Bros. Coffee", "id": 9881800715, "shop": null, "building": null }, "geometry": { "type": "Point", "coordinates": [ -104.817258, 39.7397391 ] } },
{ "type": "Feature", "properties": { "amenity": "cafe", "name": "Wonder Tea", "id": 10032439917, "shop": null, "building": null }, "geometry": { "type": "Point", "coordinates": [ -104.845448, 39.697656 ] } },
{ "type": "Feature", "properties": { "amenity": "cafe", "name": "Devil and Angel", "id": 10054965018, "shop": null, "building": null }, "geometry": { "type": "Point", "coordinates": [ -104.8625494, 39.6670472 ] } },
{ "type": "Feature", "properties": { "amenity": "cafe", "name": "Endless Grind Coffee", "id": 10290362828, "shop": null, "building": null }, "geometry": { "type": "Point", "coordinates": [ -104.788645, 39.6375275 ] } },
{ "type": "Feature", "properties": { "amenity": "cafe", "name": "Wee Tea", "id": 10814688313, "shop": null, "building": null }, "geometry": { "type": "Point", "coordinates": [ -104.8279296, 39.7391417 ] } },
{ "type": "Feature", "properties": { "amenity": "cafe", "name": "Milly's Community Cafe", "id": 10876017033, "shop": null, "building": null }, "geometry": { "type": "Point", "coordinates": [ -104.8049013, 39.7072606 ] } },
{ "type": "Feature", "properties": { "amenity": "cafe", "name": "Kung Fu Tea", "id": 10941956969, "shop": "tea", "building": null }, "geometry": { "type": "Point", "coordinates": [ -104.8459825, 39.6975841 ] } },
{ "type": "Feature", "properties": { "amenity": "cafe", "name": "Cozy Cafe", "id": 10993266439, "shop": null, "building": null }, "geometry": { "type": "Point", "coordinates": [ -104.8655134, 39.7210125 ] } },
{ "type": "Feature", "properties": { "amenity": "cafe", "name": "Gina's Kitchen", "id": 11125192003, "shop": null, "building": null }, "geometry": { "type": "Point", "coordinates": [ -104.8188649, 39.7116182 ] } },
{ "type": "Feature", "properties": { "amenity": "cafe", "name": "Glissade Coffee Company", "id": 11191174488, "shop": null, "building": null }, "geometry": { "type": "Point", "coordinates": [ -104.868957, 39.7534375 ] } },
{ "type": "Feature", "properties": { "amenity": "cafe", "name": "Ziggi's Coffee", "id": 11219673974, "shop": null, "building": null }, "geometry": { "type": "Point", "coordinates": [ -104.7900668, 39.7044188 ] } },
{ "type": "Feature", "properties": { "amenity": "cafe", "name": "Mocha", "id": 11451540816, "shop": null, "building": null }, "geometry": { "type": "Point", "coordinates": [ -104.8636902, 39.6671921 ] } },
{ "type": "Feature", "properties": { "amenity": "cafe", "name": "Banh & Butter", "id": 12146487806, "shop": null, "building": null }, "geometry": { "type": "Point", "coordinates": [ -104.8725063, 39.7403335 ] } },
{ "type": "Feature", "properties": { "amenity": "cafe", "name": "Lucy Coffee", "id": 12162480486, "shop": null, "building": null }, "geometry": { "type": "Point", "coordinates": [ -104.8241795, 39.6954962 ] } },
{ "type": "Feature", "properties": { "amenity": "cafe", "name": "Legends Coffee", "id": 12314207688, "shop": null, "building": null }, "geometry": { "type": "Point", "coordinates": [ -104.7077269, 39.6042185 ] } },
{ "type": "Feature", "properties": { "amenity": "cafe", "name": "Bios Zoe Nutrition", "id": 12463199856, "shop": null, "building": null }, "geometry": { "type": "Point", "coordinates": [ -104.8719589, 39.7412958 ] } },
{ "type": "Feature", "properties": { "amenity": "cafe", "name": "Jubilee Roasting Co", "id": 12586166117, "shop": null, "building": null }, "geometry": { "type": "Point", "coordinates": [ -104.8597679, 39.7395395 ] } },
{ "type": "Feature", "properties": { "amenity": "cafe", "name": "Starbucks", "id": 164125615, "shop": null, "building": "retail" }, "geometry": { "type": "Polygon", "coordinates": [ [ [ -104.8503017, 39.6600692 ], [ -104.850301, 39.6600157 ], [ -104.8503004, 39.6599755 ], [ -104.8502996, 39.6599074 ], [ -104.8501678, 39.6599083 ], [ -104.8501698, 39.6600701 ], [ -104.8503017, 39.6600692 ] ] ] } },
{ "type": "Feature", "properties": { "amenity": "cafe", "name": "Starbucks", "id": 289306242, "shop": null, "building": "retail" }, "geometry": { "type": "Polygon", "coordinates": [ [ [ -104.8266497, 39.6977641 ], [ -104.8266497, 39.6976919 ], [ -104.826619, 39.6976919 ], [ -104.826619, 39.6976796 ], [ -104.8264425, 39.6976797 ], [ -104.8264426, 39.6976938 ], [ -104.8263679, 39.6976938 ], [ -104.8263679, 39.6977744 ], [ -104.8265253, 39.6977743 ], [ -104.8265253, 39.6977957 ], [ -104.8265649, 39.6977957 ], [ -104.8265649, 39.6977752 ], [ -104.8265907, 39.6977752 ], [ -104.8265907, 39.6977884 ], [ -104.8266231, 39.6977884 ], [ -104.8266231, 39.6977751 ], [ -104.8266329, 39.6977751 ], [ -104.8266329, 39.6977641 ], [ -104.8266497, 39.6977641 ] ] ] } },
{ "type": "Feature", "properties": { "amenity": "cafe", "name": "Starbucks", "id": 668996120, "shop": null, "building": "yes" }, "geometry": { "type": "Polygon", "coordinates": [ [ [ -104.7905699, 39.694321 ], [ -104.7905696, 39.6942336 ], [ -104.7905841, 39.6942336 ], [ -104.7905833, 39.6941825 ], [ -104.7905686, 39.6941825 ], [ -104.7905683, 39.6941288 ], [ -104.7904875, 39.694129 ], [ -104.7904884, 39.6943212 ], [ -104.7905699, 39.694321 ] ] ] } },
{ "type": "Feature", "properties": { "amenity": "cafe", "name": "Starbucks", "id": 902775746, "shop": null, "building": "yes" }, "geometry": { "type": "Polygon", "coordinates": [ [ [ -104.7902014, 39.6252899 ], [ -104.7901897, 39.6252852 ], [ -104.7899668, 39.6251969 ], [ -104.7900059, 39.6251383 ], [ -104.7900143, 39.6251257 ], [ -104.7900824, 39.6251526 ], [ -104.7900898, 39.6251415 ], [ -104.7901228, 39.6251545 ], [ -104.7901162, 39.6251645 ], [ -104.7902498, 39.6252175 ], [ -104.7902014, 39.6252899 ] ] ] } },
{ "type": "Feature", "properties": { "amenity": "cafe", "name": "Dutch Bros. Coffee", "id": 1081318283, "shop": null, "building": "yes" }, "geometry": { "type": "Polygon", "coordinates": [ [ [ -104.817337, 39.7397654 ], [ -104.81722, 39.7397651 ], [ -104.8171889, 39.739765 ], [ -104.8171885, 39.7397059 ], [ -104.8173365, 39.7397069 ], [ -104.817337, 39.7397654 ] ] ] } },
{ "type": "Feature", "properties": { "amenity": "cafe", "name": "Starbucks", "id": 1208568515, "shop": null, "building": "yes" }, "geometry": { "type": "Polygon", "coordinates": [ [ [ -104.6915539, 39.5913653 ], [ -104.6915357, 39.5913354 ], [ -104.6915265, 39.5913387 ], [ -104.6915075, 39.5913075 ], [ -104.6915174, 39.5913039 ], [ -104.6915109, 39.5912932 ], [ -104.6915978, 39.5912618 ], [ -104.6915945, 39.5912564 ], [ -104.6916251, 39.5912454 ], [ -104.6916287, 39.5912512 ], [ -104.6917557, 39.5912053 ], [ -104.6917631, 39.5912173 ], [ -104.6917924, 39.5912655 ], [ -104.6917808, 39.5912697 ], [ -104.6917871, 39.5912801 ], [ -104.6917404, 39.5912969 ], [ -104.6917476, 39.5913088 ], [ -104.6917413, 39.591311 ], [ -104.6917488, 39.5913234 ], [ -104.6917237, 39.5913325 ], [ -104.6917165, 39.5913207 ], [ -104.6917079, 39.5913239 ], [ -104.6917008, 39.5913123 ], [ -104.6915539, 39.5913653 ] ] ] } },
{ "type": "Feature", "properties": { "amenity": "cafe", "name": "Logan House Coffee Co.", "id": 1242051509, "shop": null, "building": null }, "geometry": { "type": "Polygon", "coordinates": [ [ [ -104.8771866, 39.7528999 ], [ -104.8771791, 39.7528332 ], [ -104.877179, 39.7528267 ], [ -104.8771787, 39.7528058 ], [ -104.8771787, 39.7528003 ], [ -104.8771679, 39.7528003 ], [ -104.8770507, 39.7528002 ], [ -104.8769905, 39.7528002 ], [ -104.8769908, 39.752815 ], [ -104.8769855, 39.752815 ], [ -104.8769856, 39.7528997 ], [ -104.8770227, 39.7528997 ], [ -104.8771866, 39.7528999 ] ] ] } },
{ "type": "Feature", "properties": { "amenity": "cafe", "name": "Rosenberg's Bagels & Delicatessen", "id": 1242051510, "shop": null, "building": null }, "geometry": { "type": "Polygon", "coordinates": [ [ [ -104.8769856, 39.7528997 ], [ -104.8769855, 39.752815 ], [ -104.8769908, 39.752815 ], [ -104.8769905, 39.7528002 ], [ -104.876977, 39.7528002 ], [ -104.8768895, 39.7528002 ], [ -104.8768669, 39.7528002 ], [ -104.8768666, 39.7528655 ], [ -104.8768666, 39.7528713 ], [ -104.8768662, 39.7529661 ], [ -104.8768968, 39.7529662 ], [ -104.8770012, 39.7529664 ], [ -104.8770333, 39.7529665 ], [ -104.8770609, 39.7529665 ], [ -104.8770609, 39.7529341 ], [ -104.8770227, 39.7529341 ], [ -104.8770227, 39.7528997 ], [ -104.8769856, 39.7528997 ] ] ] } },
{ "type": "Feature", "properties": { "amenity": "cafe", "name": "Churreria de Madrid", "id": 1242051540, "shop": null, "building": null }, "geometry": { "type": "Polygon", "coordinates": [ [ [ -104.8775486, 39.7530304 ], [ -104.8776186, 39.7530243 ], [ -104.877617, 39.7530151 ], [ -104.8776263, 39.7530145 ], [ -104.8776203, 39.7529726 ], [ -104.8775419, 39.7529784 ], [ -104.8775486, 39.7530304 ] ] ] } },
{ "type": "Feature", "properties": { "amenity": "cafe", "name": "Dutch Bros. Coffee", "id": 1275280230, "shop": null, "building": "yes" }, "geometry": { "type": "Polygon", "coordinates": [ [ [ -104.790721, 39.7091943 ], [ -104.7907149, 39.7090569 ], [ -104.7906038, 39.7090557 ], [ -104.7906066, 39.7091959 ], [ -104.790721, 39.7091943 ] ] ] } }
]
}
