{
"type": "FeatureCollection",
"name": "englewood_cafe",
"crs": { "type": "name", "properties": { "name": "urn:ogc:def:crs:OGC:1.3:CRS84" } },
"features": [
{ "type": "Feature", "properties": { "amenity": "cafe", "name": "Caribou Coffee", "id": 598415403 }, "geometry": { "type": "Point", "coordinates": [ -104.987542, 39.6222204 ] } },
{ "type": "Feature", "properties": { "amenity": "cafe", "name": "Cafe 180", "id": 2294993357 }, "geometry": { "type": "Point", "coordinates": [ -104.9879775, 39.6561756 ] } },
{ "type": "Feature", "properties": { "amenity": "cafe", "name": "Starbucks", "id": 2418555198 }, "geometry": { "type": "Point", "coordinates": [ -104.987431, 39.6388421 ] } },
{ "type": "Feature", "properties": { "amenity": "cafe", "name": "Starbucks", "id": 4831206494 }, "geometry": { "type": "Point", "coordinates": [ -105.019258, 39.6236775 ] } },
{ "type": "Feature", "properties": { "amenity": "cafe", "name": "Black Rock Coffee", "id": 9518241587 }, "geometry": { "type": "Point", "coordinates": [ -105.0218843, 39.6244204 ] } },
{ "type": "Feature", "properties": { "amenity": "cafe", "name": "Atlas Coffee", "id": 11249060137 }, "geometry": { "type": "Point", "coordinates": [ -104.9905539, 39.6236822 ] } },
{ "type": "Feature", "properties": { "amenity": "cafe", "name": "Mango Tree", "id": 11384453707 }, "geometry": { "type": "Point", "coordinates": [ -104.987416, 39.6532745 ] } }
]
}
