{
"type": "FeatureCollection",
"name": "lafayette_cafe",
"crs": { "type": "name", "properties": { "name": "urn:ogc:def:crs:OGC:1.3:CRS84" } },
"features": [
{ "type": "Feature", "properties": { "amenity": "cafe", "name": "Starbucks", "id": 400709926, "building": null }, "geometry": { "type": "Point", "coordinates": [ -105.1016642, 40.0016405 ] } },
{ "type": "Feature", "properties": { "amenity": "cafe", "name": "Hannah's Specialty Foods", "id": 417159611, "building": null }, "geometry": { "type": "Point", "coordinates": [ -105.0902121, 39.9909498 ] } },
{ "type": "Feature", "properties": { "amenity": "cafe", "name": null, "id": 417616742, "building": null }, "geometry": { "type": "Point", "coordinates": [ -105.0903105, 39.9903167 ] } },
{ "type": "Feature", "properties": { "amenity": "cafe", "name": "Starbucks", "id": 1157630495, "building": null }, "geometry": { "type": "Point", "coordinates": [ -105.1023978, 40.0157796 ] } },
{ "type": "Feature", "properties": { "amenity": "cafe", "name": "Espresso Vino by Brewing Market", "id": 2160508888, "building": null }, "geometry": { "type": "Point", "coordinates": [ -105.1320229, 40.0122767 ] } },
{ "type": "Feature", "properties": { "amenity": "cafe", "name": "Starbucks", "id": 6362730368, "building": null }, "geometry": { "type": "Point", "coordinates": [ -105.1035982, 40.0045035 ] } },
{ "type": "Feature", "properties": { "amenity": "cafe", "name": "Starbucks", "id": 7578769743, "building": null }, "geometry": { "type": "Point", "coordinates": [ -105.096955, 39.9874123 ] } },
{ "type": "Feature", "properties": { "amenity": "cafe", "name": "Starbucks", "id": 10174264809, "building": null }, "geometry": { "type": "Point", "coordinates": [ -105.1012204, 40.01693 ] } },
{ "type": "Feature", "properties": { "amenity": "cafe", "name": "OTIS Craft Collective", "id": 11587798276, "building": null }, "geometry": { "type": "Point", "coordinates": [ -105.0945762, 39.985836 ] } },
{ "type": "Feature", "properties": { "amenity": "cafe", "name": "East Simpson Coffee Company", "id": 470897518, "building": "commercial" }, "geometry": { "type": "Polygon", "coordinates": [ [ [ -105.086137, 39.9981678 ], [ -105.0861334, 39.9978218 ], [ -105.0860475, 39.9978224 ], [ -105.0860511, 39.9981683 ], [ -105.086137, 39.9981678 ] ] ] } }
]
}
