{
"type": "FeatureCollection",
"name": "denver north_cafe",
"crs": { "type": "name", "properties": { "name": "urn:ogc:def:crs:OGC:1.3:CRS84" } },
"features": [
{ "type": "Feature", "properties": { "amenity": "cafe", "name": "Starbucks", "id": 581275861, "building": null }, "geometry": { "type": "Point", "coordinates": [ -104.9897812, 39.7468436 ] } },
{ "type": "Feature", "properties": { "amenity": "cafe", "name": "Starbucks", "id": 581276462, "building": null }, "geometry": { "type": "Point", "coordinates": [ -104.9924224, 39.7451805 ] } },
{ "type": "Feature", "properties": { "amenity": "cafe", "name": "Starbucks", "id": 581286756, "building": null }, "geometry": { "type": "Point", "coordinates": [ -104.9890032, 39.7429655 ] } },
{ "type": "Feature", "properties": { "amenity": "cafe", "name": "Starbucks", "id": 590800892, "building": null }, "geometry": { "type": "Point", "coordinates": [ -104.9913758, 39.7488108 ] } },
{ "type": "Feature", "properties": { "amenity": "cafe", "name": "Fluid Coffee Bar", "id": 637817508, "building": null }, "geometry": { "type": "Point", "coordinates": [ -104.9809391, 39.7463082 ] } },
{ "type": "Feature", "properties": { "amenity": "cafe", "name": "Welton Street Cafe", "id": 659623733, "building": null }, "geometry": { "type": "Point", "coordinates": [ -104.9758703, 39.7566615 ] } },
{ "type": "Feature", "properties": { "amenity": "cafe", "name": "Leela European Cafe", "id": 663847783, "building": null }, "geometry": { "type": "Point", "coordinates": [ -104.9950474, 39.7453409 ] } },
{ "type": "Feature", "properties": { "amenity": "cafe", "name": "Ink! Coffee", "id": 883603671, "building": null }, "geometry": { "type": "Point", "coordinates": [ -104.990275, 39.745771 ] } },
{ "type": "Feature", "properties": { "amenity": "cafe", "name": "Starbucks", "id": 920425660, "building": null }, "geometry": { "type": "Point", "coordinates": [ -104.9025932, 39.757906 ] } },
{ "type": "Feature", "properties": { "amenity": "cafe", "name": "My Favorite Muffin", "id": 1265213454, "building": null }, "geometry": { "type": "Point", "coordinates": [ -105.001431, 39.7520835 ] } },
{ "type": "Feature", "properties": { "amenity": "cafe", "name": "Starbucks", "id": 1303797963, "building": null }, "geometry": { "type": "Point", "coordinates": [ -104.9994527, 39.7474391 ] } },
{ "type": "Feature", "properties": { "amenity": "cafe", "name": "Ink Coffee", "id": 1393657198, "building": null }, "geometry": { "type": "Point", "coordinates": [ -104.9962463, 39.7494311 ] } },
{ "type": "Feature", "properties": { "amenity": "cafe", "name": "Highlands Cork and Coffee", "id": 1629171303, "building": null }, "geometry": { "type": "Point", "coordinates": [ -105.035935, 39.7623322 ] } },
{ "type": "Feature", "properties": { "amenity": "cafe", "name": "Novo Coffee", "id": 1629184428, "building": null }, "geometry": { "type": "Point", "coordinates": [ -105.03505, 39.7622447 ] } },
{ "type": "Feature", "properties": { "amenity": "cafe", "name": "Starbucks", "id": 1715380367, "building": null }, "geometry": { "type": "Point", "coordinates": [ -105.0091279, 39.7549255 ] } },
{ "type": "Feature", "properties": { "amenity": "cafe", "name": "Tuscany Coffee And Deli", "id": 1991822583, "building": null }, "geometry": { "type": "Point", "coordinates": [ -104.9859127, 39.7435312 ] } },
{ "type": "Feature", "properties": { "amenity": "cafe", "name": "Tuscany Coffee And Deli", "id": 1991823857, "building": null }, "geometry": { "type": "Point", "coordinates": [ -104.992681, 39.745879 ] } },
{ "type": "Feature", "properties": { "amenity": "cafe", "name": "Black Eye Coffee", "id": 2109390815, "building": null }, "geometry": { "type": "Point", "coordinates": [ -105.003947, 39.764763 ] } },
{ "type": "Feature", "properties": { "amenity": "cafe", "name": "Tenn Street Coffee", "id": 2190367759, "building": null }, "geometry": { "type": "Point", "coordinates": [ -105.0438058, 39.7769194 ] } },
{ "type": "Feature", "properties": { "amenity": "cafe", "name": "Starbucks", "id": 2190628493, "building": null }, "geometry": { "type": "Point", "coordinates": [ -105.0458537, 39.769095 ] } },
{ "type": "Feature", "properties": { "amenity": "cafe", "name": "Little Owl", "id": 2500839110, "building": null }, "geometry": { "type": "Point", "coordinates": [ -104.9996662, 39.7503633 ] } },
{ "type": "Feature", "properties": { "amenity": "cafe", "name": "St. Marks Coffee House", "id": 2776435854, "building": null }, "geometry": { "type": "Point", "coordinates": [ -104.9629689, 39.7434013 ] } },
{ "type": "Feature", "properties": { "amenity": "cafe", "name": "JWU Perk", "id": 2847479620, "building": null }, "geometry": { "type": "Point", "coordinates": [ -104.904836, 39.7463283 ] } },
{ "type": "Feature", "properties": { "amenity": "cafe", "name": "Starbucks", "id": 2999569805, "building": null }, "geometry": { "type": "Point", "coordinates": [ -104.9945337, 39.7654425 ] } },
{ "type": "Feature", "properties": { "amenity": "cafe", "name": "ink! Coffee", "id": 3023251626, "building": null }, "geometry": { "type": "Point", "coordinates": [ -104.99178, 39.744693 ] } },
{ "type": "Feature", "properties": { "amenity": "cafe", "name": "Metropolis Coffee", "id": 3046088982, "building": null }, "geometry": { "type": "Point", "coordinates": [ -105.0087597, 39.7590007 ] } },
{ "type": "Feature", "properties": { "amenity": "cafe", "name": "Gallop Cafe", "id": 3054054436, "building": null }, "geometry": { "type": "Point", "coordinates": [ -105.0160137, 39.7621345 ] } },
{ "type": "Feature", "properties": { "amenity": "cafe", "name": "Wooden Spoon Cafe and Bakery", "id": 3054236751, "building": null }, "geometry": { "type": "Point", "coordinates": [ -105.0164194, 39.7619097 ] } },
{ "type": "Feature", "properties": { "amenity": "cafe", "name": "Caribou Coffee", "id": 3088001701, "building": null }, "geometry": { "type": "Point", "coordinates": [ -104.99415, 39.7468795 ] } },
{ "type": "Feature", "properties": { "amenity": "cafe", "name": "Starbucks", "id": 3088792765, "building": null }, "geometry": { "type": "Point", "coordinates": [ -104.9975231, 39.7457289 ] } },
{ "type": "Feature", "properties": { "amenity": "cafe", "name": "Cole Craft Coffee", "id": 3115286878, "building": null }, "geometry": { "type": "Point", "coordinates": [ -104.9603093, 39.7646387 ] } },
{ "type": "Feature", "properties": { "amenity": "cafe", "name": "Wystone World Teas Cafe", "id": 3171977766, "building": null }, "geometry": { "type": "Point", "coordinates": [ -104.986312, 39.7654846 ] } },
{ "type": "Feature", "properties": { "amenity": "cafe", "name": "House of Commons", "id": 3180232455, "building": null }, "geometry": { "type": "Point", "coordinates": [ -105.008955, 39.7569038 ] } },
{ "type": "Feature", "properties": { "amenity": "cafe", "name": "Caffe Figurati", "id": 3196553142, "building": null }, "geometry": { "type": "Point", "coordinates": [ -104.9797246, 39.7685038 ] } },
{ "type": "Feature", "properties": { "amenity": "cafe", "name": "Lost City", "id": 3196577416, "building": null }, "geometry": { "type": "Point", "coordinates": [ -104.9833282, 39.772518 ] } },
{ "type": "Feature", "properties": { "amenity": "cafe", "name": "Novo Coffee", "id": 3221218807, "building": null }, "geometry": { "type": "Point", "coordinates": [ -104.9896394, 39.744251 ] } },
{ "type": "Feature", "properties": { "amenity": "cafe", "name": "(closed)Ink!", "id": 3238899446, "building": null }, "geometry": { "type": "Point", "coordinates": [ -104.982157, 39.7612262 ] } },
{ "type": "Feature", "properties": { "amenity": "cafe", "name": "Crema Coffee House", "id": 3238899457, "building": null }, "geometry": { "type": "Point", "coordinates": [ -104.9817391, 39.7611785 ] } },
{ "type": "Feature", "properties": { "amenity": "cafe", "name": "Zook's Coffee and Ice Cream", "id": 3327546663, "building": null }, "geometry": { "type": "Point", "coordinates": [ -105.0289479, 39.769207 ] } },
{ "type": "Feature", "properties": { "amenity": "cafe", "name": "SloHi Coffee Company", "id": 3330670375, "building": null }, "geometry": { "type": "Point", "coordinates": [ -105.0448335, 39.7583822 ] } },
{ "type": "Feature", "properties": { "amenity": "cafe", "name": "Starbucks", "id": 3344989196, "building": null }, "geometry": { "type": "Point", "coordinates": [ -104.940197, 39.7734099 ] } },
{ "type": "Feature", "properties": { "amenity": "cafe", "name": "Starbucks", "id": 3358908363, "building": null }, "geometry": { "type": "Point", "coordinates": [ -105.053642, 39.7503027 ] } },
{ "type": "Feature", "properties": { "amenity": "cafe", "name": "Cherry Bean Coffee", "id": 3360175137, "building": null }, "geometry": { "type": "Point", "coordinates": [ -105.011389, 39.7728164 ] } },
{ "type": "Feature", "properties": { "amenity": "cafe", "name": "Starbucks", "id": 3382283307, "building": null }, "geometry": { "type": "Point", "coordinates": [ -104.9870945, 39.743624 ] } },
{ "type": "Feature", "properties": { "amenity": "cafe", "name": "Toasts N Roasts", "id": 3386788436, "building": null }, "geometry": { "type": "Point", "coordinates": [ -104.9816044, 39.7431281 ] } },
{ "type": "Feature", "properties": { "amenity": "cafe", "name": "Amante Coffee at the Oxford", "id": 3787902338, "building": null }, "geometry": { "type": "Point", "coordinates": [ -104.9992233, 39.7522724 ] } },
{ "type": "Feature", "properties": { "amenity": "cafe", "name": "Eliot Street Cafe", "id": 3899385772, "building": null }, "geometry": { "type": "Point", "coordinates": [ -105.022934, 39.7551924 ] } },
{ "type": "Feature", "properties": { "amenity": "cafe", "name": "2914 Coffee", "id": 3901005627, "building": null }, "geometry": { "type": "Point", "coordinates": [ -105.0241522, 39.7534797 ] } },
{ "type": "Feature", "properties": { "amenity": "cafe", "name": "Starbucks", "id": 3901978519, "building": null }, "geometry": { "type": "Point", "coordinates": [ -105.02494, 39.7604081 ] } },
{ "type": "Feature", "properties": { "amenity": "cafe", "name": "Starbucks", "id": 3908806773, "building": null }, "geometry": { "type": "Point", "coordinates": [ -105.0247224, 39.7763746 ] } },
{ "type": "Feature", "properties": { "amenity": "cafe", "name": "Cafe Zuri", "id": 3930030948, "building": null }, "geometry": { "type": "Point", "coordinates": [ -105.0363255, 39.7620209 ] } },
{ "type": "Feature", "properties": { "amenity": "cafe", "name": "Common Grounds", "id": 4044618809, "building": null }, "geometry": { "type": "Point", "coordinates": [ -104.9988479, 39.7519268 ] } },
{ "type": "Feature", "properties": { "amenity": "cafe", "name": "Huckleberry Roasters", "id": 4315608709, "building": null }, "geometry": { "type": "Point", "coordinates": [ -105.0067597, 39.7754818 ] } },
{ "type": "Feature", "properties": { "amenity": "cafe", "name": "Starbucks", "id": 4317734215, "building": null }, "geometry": { "type": "Point", "coordinates": [ -104.9985441, 39.7573485 ] } },
{ "type": "Feature", "properties": { "amenity": "cafe", "name": "Corner Bakery", "id": 4323700577, "building": null }, "geometry": { "type": "Point", "coordinates": [ -104.990106, 39.7432835 ] } },
{ "type": "Feature", "properties": { "amenity": "cafe", "name": "Queen City Collective Coffee", "id": 4330697271, "building": null }, "geometry": { "type": "Point", "coordinates": [ -104.9744163, 39.7574185 ] } },
{ "type": "Feature", "properties": { "amenity": "cafe", "name": "Denver Cat Company", "id": 4372249917, "building": null }, "geometry": { "type": "Point", "coordinates": [ -105.044156, 39.771741 ] } },
{ "type": "Feature", "properties": { "amenity": "cafe", "name": "Buchi Cafe Cubano", "id": 4402620456, "building": null }, "geometry": { "type": "Point", "coordinates": [ -105.0202189, 39.7694654 ] } },
{ "type": "Feature", "properties": { "amenity": "cafe", "name": "Maci Cafe", "id": 4444969774, "building": null }, "geometry": { "type": "Point", "coordinates": [ -105.0109531, 39.7591044 ] } },
{ "type": "Feature", "properties": { "amenity": "cafe", "name": "Starbucks", "id": 4518386868, "building": null }, "geometry": { "type": "Point", "coordinates": [ -105.0030109, 39.7531496 ] } },
{ "type": "Feature", "properties": { "amenity": "cafe", "name": "Crema Bodega", "id": 4577581282, "building": null }, "geometry": { "type": "Point", "coordinates": [ -104.9845805, 39.7593932 ] } },
{ "type": "Feature", "properties": { "amenity": "cafe", "name": "Claver Café", "id": 4639099778, "building": null }, "geometry": { "type": "Point", "coordinates": [ -105.0322646, 39.7915904 ] } },
{ "type": "Feature", "properties": { "amenity": "cafe", "name": "Main Café", "id": 4639102404, "building": null }, "geometry": { "type": "Point", "coordinates": [ -105.0337452, 39.78928 ] } },
{ "type": "Feature", "properties": { "amenity": "cafe", "name": "Clarke Café", "id": 4639103568, "building": null }, "geometry": { "type": "Point", "coordinates": [ -105.0309852, 39.7881691 ] } },
{ "type": "Feature", "properties": { "amenity": "cafe", "name": "Logan House Coffee Company", "id": 4684521349, "building": null }, "geometry": { "type": "Point", "coordinates": [ -104.9787141, 39.7706974 ] } },
{ "type": "Feature", "properties": { "amenity": "cafe", "name": "Port Side", "id": 4684522796, "building": null }, "geometry": { "type": "Point", "coordinates": [ -104.9862182, 39.7575473 ] } },
{ "type": "Feature", "properties": { "amenity": "cafe", "name": "Stowaway Kitchen", "id": 4685099310, "building": null }, "geometry": { "type": "Point", "coordinates": [ -104.9867429, 39.7586368 ] } },
{ "type": "Feature", "properties": { "amenity": "cafe", "name": "Teatulia Tea Bar", "id": 4714694686, "building": null }, "geometry": { "type": "Point", "coordinates": [ -105.0156866, 39.7585331 ] } },
{ "type": "Feature", "properties": { "amenity": "cafe", "name": "Huck Coffee Roasters", "id": 4738270221, "building": null }, "geometry": { "type": "Point", "coordinates": [ -105.043864, 39.7723648 ] } },
{ "type": "Feature", "properties": { "amenity": "cafe", "name": "MOB Coffee", "id": 4739231947, "building": null }, "geometry": { "type": "Point", "coordinates": [ -105.044156, 39.7718872 ] } },
{ "type": "Feature", "properties": { "amenity": "cafe", "name": "Blue Sparrow Coffee", "id": 4761717435, "building": null }, "geometry": { "type": "Point", "coordinates": [ -104.9811084, 39.7643424 ] } },
{ "type": "Feature", "properties": { "amenity": "cafe", "name": "Starbucks", "id": 4774955204, "building": null }, "geometry": { "type": "Point", "coordinates": [ -105.0366718, 39.7760152 ] } },
{ "type": "Feature", "properties": { "amenity": "cafe", "name": "Sapor Coffee & Concepts", "id": 4911760127, "building": null }, "geometry": { "type": "Point", "coordinates": [ -105.01805, 39.756902 ] } },
{ "type": "Feature", "properties": { "amenity": "cafe", "name": "Capital One Café", "id": 4995157822, "building": null }, "geometry": { "type": "Point", "coordinates": [ -105.0025219, 39.7529124 ] } },
{ "type": "Feature", "properties": { "amenity": "cafe", "name": "Novo Coffee", "id": 5114018833, "building": null }, "geometry": { "type": "Point", "coordinates": [ -104.9799511, 39.7624331 ] } },
{ "type": "Feature", "properties": { "amenity": "cafe", "name": "15th Street Cafe", "id": 5143270964, "building": null }, "geometry": { "type": "Point", "coordinates": [ -104.9960002, 39.7460376 ] } },
{ "type": "Feature", "properties": { "amenity": "cafe", "name": "Dandy Lion Coffee", "id": 5173952322, "building": null }, "geometry": { "type": "Point", "coordinates": [ -104.9772404, 39.7693795 ] } },
{ "type": "Feature", "properties": { "amenity": "cafe", "name": "Coffee & Tea Co.", "id": 5325314009, "building": null }, "geometry": { "type": "Point", "coordinates": [ -104.987786, 39.7441856 ] } },
{ "type": "Feature", "properties": { "amenity": "cafe", "name": "Fluid Coffee Bar", "id": 5325334458, "building": null }, "geometry": { "type": "Point", "coordinates": [ -104.9926863, 39.7463478 ] } },
{ "type": "Feature", "properties": { "amenity": "cafe", "name": "Huckleberry Roasters", "id": 5387108277, "building": null }, "geometry": { "type": "Point", "coordinates": [ -104.9968144, 39.7535365 ] } },
{ "type": "Feature", "properties": { "amenity": "cafe", "name": "TeaLee’s Teahouse", "id": 5405605013, "building": null }, "geometry": { "type": "Point", "coordinates": [ -104.9842648, 39.7504353 ] } },
{ "type": "Feature", "properties": { "amenity": "cafe", "name": "Dazbog Coffee", "id": 5430545011, "building": null }, "geometry": { "type": "Point", "coordinates": [ -104.9924601, 39.749667 ] } },
{ "type": "Feature", "properties": { "amenity": "cafe", "name": "Emily’s Coffee", "id": 5430548334, "building": null }, "geometry": { "type": "Point", "coordinates": [ -104.9858562, 39.7460247 ] } },
{ "type": "Feature", "properties": { "amenity": "cafe", "name": "illy Caffè", "id": 5430549711, "building": null }, "geometry": { "type": "Point", "coordinates": [ -104.9930967, 39.7475173 ] } },
{ "type": "Feature", "properties": { "amenity": "cafe", "name": "Ink! Coffee", "id": 5430550347, "building": null }, "geometry": { "type": "Point", "coordinates": [ -104.9902743, 39.7477211 ] } },
{ "type": "Feature", "properties": { "amenity": "cafe", "name": "Serendipity Coffee Bar", "id": 5430955075, "building": null }, "geometry": { "type": "Point", "coordinates": [ -105.0013989, 39.7512584 ] } },
{ "type": "Feature", "properties": { "amenity": "cafe", "name": "Tea Cloud", "id": 5430994215, "building": null }, "geometry": { "type": "Point", "coordinates": [ -104.9927269, 39.7472512 ] } },
{ "type": "Feature", "properties": { "amenity": "cafe", "name": "Corner Bakery", "id": 5430996818, "building": null }, "geometry": { "type": "Point", "coordinates": [ -104.9915677, 39.7467019 ] } },
{ "type": "Feature", "properties": { "amenity": "cafe", "name": "Superfruit Republic", "id": 5431022840, "building": null }, "geometry": { "type": "Point", "coordinates": [ -104.9871656, 39.7442825 ] } },
{ "type": "Feature", "properties": { "amenity": "cafe", "name": "Coffee at The Point", "id": 5431030959, "building": null }, "geometry": { "type": "Point", "coordinates": [ -104.9779357, 39.7545062 ] } },
{ "type": "Feature", "properties": { "amenity": "cafe", "name": "Dazbog Coffee", "id": 5511233694, "building": null }, "geometry": { "type": "Point", "coordinates": [ -104.9731185, 39.7461184 ] } },
{ "type": "Feature", "properties": { "amenity": "cafe", "name": "Joory Donuts and Coffee", "id": 5600321440, "building": null }, "geometry": { "type": "Point", "coordinates": [ -104.9731652, 39.759288 ] } },
{ "type": "Feature", "properties": { "amenity": "cafe", "name": "Amethyst Coffee", "id": 5641379736, "building": null }, "geometry": { "type": "Point", "coordinates": [ -105.0507655, 39.7766989 ] } },
{ "type": "Feature", "properties": { "amenity": "cafe", "name": "The Molecule Effect", "id": 5661003387, "building": null }, "geometry": { "type": "Point", "coordinates": [ -104.9996709, 39.7513183 ] } },
{ "type": "Feature", "properties": { "amenity": "cafe", "name": "Starbucks", "id": 5662303088, "building": null }, "geometry": { "type": "Point", "coordinates": [ -104.9911209, 39.7471706 ] } },
{ "type": "Feature", "properties": { "amenity": "cafe", "name": "Method Collective", "id": 5685683782, "building": null }, "geometry": { "type": "Point", "coordinates": [ -105.0114169, 39.7621566 ] } },
{ "type": "Feature", "properties": { "amenity": "cafe", "name": "Starbucks", "id": 5686214630, "building": null }, "geometry": { "type": "Point", "coordinates": [ -104.9900484, 39.7470529 ] } },
{ "type": "Feature", "properties": { "amenity": "cafe", "name": "Hello Darling", "id": 5686406114, "building": null }, "geometry": { "type": "Point", "coordinates": [ -105.004336, 39.7549176 ] } },
{ "type": "Feature", "properties": { "amenity": "cafe", "name": "Showroom at Furniture Row Cafe", "id": 5688362360, "building": null }, "geometry": { "type": "Point", "coordinates": [ -104.988928, 39.7952541 ] } },
{ "type": "Feature", "properties": { "amenity": "cafe", "name": "Coffee", "id": 5951912593, "building": null }, "geometry": { "type": "Point", "coordinates": [ -104.9951357, 39.7562147 ] } },
{ "type": "Feature", "properties": { "amenity": "cafe", "name": "Coffee", "id": 5951912594, "building": null }, "geometry": { "type": "Point", "coordinates": [ -104.9936793, 39.7555394 ] } },
{ "type": "Feature", "properties": { "amenity": "cafe", "name": "Pinwheel Coffee", "id": 6082644012, "building": null }, "geometry": { "type": "Point", "coordinates": [ -105.0043036, 39.7679346 ] } },
{ "type": "Feature", "properties": { "amenity": "cafe", "name": "The Weathervane Cafe", "id": 6152647001, "building": null }, "geometry": { "type": "Point", "coordinates": [ -104.9665346, 39.7434329 ] } },
{ "type": "Feature", "properties": { "amenity": "cafe", "name": "Carbon Cafe and Habit Dispensary", "id": 6271771085, "building": null }, "geometry": { "type": "Point", "coordinates": [ -104.9846606, 39.7508339 ] } },
{ "type": "Feature", "properties": { "amenity": "cafe", "name": "Starbucks", "id": 6609813843, "building": null }, "geometry": { "type": "Point", "coordinates": [ -105.0247844, 39.7914401 ] } },
{ "type": "Feature", "properties": { "amenity": "cafe", "name": "MRQT", "id": 6698290770, "building": null }, "geometry": { "type": "Point", "coordinates": [ -104.9701261, 39.7706189 ] } },
{ "type": "Feature", "properties": { "amenity": "cafe", "name": "Little Owl Coffee", "id": 7277831864, "building": null }, "geometry": { "type": "Point", "coordinates": [ -104.9968364, 39.7529515 ] } },
{ "type": "Feature", "properties": { "amenity": "cafe", "name": "Invita Cafe", "id": 7277831872, "building": null }, "geometry": { "type": "Point", "coordinates": [ -104.997318, 39.7543425 ] } },
{ "type": "Feature", "properties": { "amenity": "cafe", "name": "Randy’s", "id": 7292804848, "building": null }, "geometry": { "type": "Point", "coordinates": [ -104.9689478, 39.7474343 ] } },
{ "type": "Feature", "properties": { "amenity": "cafe", "name": "Starbucks", "id": 7292804858, "building": null }, "geometry": { "type": "Point", "coordinates": [ -104.9680127, 39.7446833 ] } },
{ "type": "Feature", "properties": { "amenity": "cafe", "name": "Starbucks", "id": 7455227486, "building": null }, "geometry": { "type": "Point", "coordinates": [ -104.8950225, 39.7853227 ] } },
{ "type": "Feature", "properties": { "amenity": "cafe", "name": "Café 21 Express", "id": 7564543860, "building": null }, "geometry": { "type": "Point", "coordinates": [ -104.9915992, 39.7492506 ] } },
{ "type": "Feature", "properties": { "amenity": "cafe", "name": "Starbucks", "id": 8099191193, "building": null }, "geometry": { "type": "Point", "coordinates": [ -104.9016333, 39.7563916 ] } },
{ "type": "Feature", "properties": { "amenity": "cafe", "name": "Honey Hill Cafe", "id": 9624667803, "building": null }, "geometry": { "type": "Point", "coordinates": [ -104.9330554, 39.750934 ] } },
{ "type": "Feature", "properties": { "amenity": "cafe", "name": "Milk & Honey", "id": 9868743676, "building": null }, "geometry": { "type": "Point", "coordinates": [ -104.9893508, 39.7583921 ] } },
{ "type": "Feature", "properties": { "amenity": "cafe", "name": "Lekker Coffee & Watering Hole", "id": 10893743606, "building": null }, "geometry": { "type": "Point", "coordinates": [ -104.974884, 39.7664588 ] } },
{ "type": "Feature", "properties": { "amenity": "cafe", "name": "Rivers and Roads Coffee", "id": 11103481462, "building": null }, "geometry": { "type": "Point", "coordinates": [ -104.9770407, 39.7594106 ] } },
{ "type": "Feature", "properties": { "amenity": "cafe", "name": "Procession Coffee", "id": 11163948543, "building": null }, "geometry": { "type": "Point", "coordinates": [ -105.0027859, 39.7639011 ] } },
{ "type": "Feature", "properties": { "amenity": "cafe", "name": "Glissade Coffee Company", "id": 11191174488, "building": null }, "geometry": { "type": "Point", "coordinates": [ -104.868957, 39.7534375 ] } },
{ "type": "Feature", "properties": { "amenity": "cafe", "name": "Hearth", "id": 11196372904, "building": null }, "geometry": { "type": "Point", "coordinates": [ -104.9851551, 39.7568093 ] } },
{ "type": "Feature", "properties": { "amenity": "cafe", "name": "Starbucks", "id": 11261019796, "building": null }, "geometry": { "type": "Point", "coordinates": [ -105.0246495, 39.7555007 ] } },
{ "type": "Feature", "properties": { "amenity": "cafe", "name": "Blue Sparrow Coffee", "id": 11270265892, "building": null }, "geometry": { "type": "Point", "coordinates": [ -105.0078625, 39.7577981 ] } },
{ "type": "Feature", "properties": { "amenity": "cafe", "name": "Corvus Coffee", "id": 11460353891, "building": null }, "geometry": { "type": "Point", "coordinates": [ -104.9686237, 39.7710422 ] } },
{ "type": "Feature", "properties": { "amenity": "cafe", "name": null, "id": 11860616468, "building": null }, "geometry": { "type": "Point", "coordinates": [ -104.942775, 39.7473736 ] } },
{ "type": "Feature", "properties": { "amenity": "cafe", "name": "Copper Door Coffee Roasters", "id": 11954992680, "building": null }, "geometry": { "type": "Point", "coordinates": [ -104.9281156, 39.7582193 ] } },
{ "type": "Feature", "properties": { "amenity": "cafe", "name": "Metropolis Coffee", "id": 12117368301, "building": null }, "geometry": { "type": "Point", "coordinates": [ -104.9841578, 39.7578998 ] } },
{ "type": "Feature", "properties": { "amenity": "cafe", "name": "The Study", "id": 12197165288, "building": null }, "geometry": { "type": "Point", "coordinates": [ -104.9985284, 39.7461188 ] } },
{ "type": "Feature", "properties": { "amenity": "cafe", "name": "Babe's Tea Room", "id": 12223436690, "building": null }, "geometry": { "type": "Point", "coordinates": [ -105.0089107, 39.7569266 ] } },
{ "type": "Feature", "properties": { "amenity": "cafe", "name": "Starbucks", "id": 12337498109, "building": null }, "geometry": { "type": "Point", "coordinates": [ -104.9950951, 39.7494749 ] } },
{ "type": "Feature", "properties": { "amenity": "cafe", "name": "Ichigo Match", "id": 12442378167, "building": null }, "geometry": { "type": "Point", "coordinates": [ -104.9974728, 39.7494099 ] } },
{ "type": "Feature", "properties": { "amenity": "cafe", "name": "Little Bodega", "id": 12511082683, "building": null }, "geometry": { "type": "Point", "coordinates": [ -104.9842863, 39.750443 ] } },
{ "type": "Feature", "properties": { "amenity": "cafe", "name": "Dazbog Coffee", "id": 320707260, "building": "university" }, "geometry": { "type": "Polygon", "coordinates": [ [ [ -105.0077542, 39.7453468 ], [ -105.0077316, 39.745363 ], [ -105.007695, 39.7453893 ], [ -105.0076567, 39.7454167 ], [ -105.0076111, 39.7453558 ], [ -105.0075647, 39.7452939 ], [ -105.0076506, 39.7452549 ], [ -105.0076644, 39.7452671 ], [ -105.007684, 39.7452844 ], [ -105.007734, 39.7453289 ], [ -105.0077542, 39.7453468 ] ] ] } },
{ "type": "Feature", "properties": { "amenity": "cafe", "name": "Prodigy Coffeehouse", "id": 327719260, "building": "yes" }, "geometry": { "type": "Polygon", "coordinates": [ [ [ -104.9421227, 39.7732536 ], [ -104.9421227, 39.7730805 ], [ -104.9420208, 39.7730805 ], [ -104.9420208, 39.7732536 ], [ -104.9421227, 39.7732536 ] ] ] } },
{ "type": "Feature", "properties": { "amenity": "cafe", "name": "Prodigy Coffeehouse", "id": 424073542, "building": "retail" }, "geometry": { "type": "Polygon", "coordinates": [ [ [ -104.9873248, 39.77863 ], [ -104.9870931, 39.7786294 ], [ -104.987092, 39.7784726 ], [ -104.9871758, 39.7784719 ], [ -104.9872123, 39.7785278 ], [ -104.9873258, 39.778527 ], [ -104.9873248, 39.77863 ] ] ] } },
{ "type": "Feature", "properties": { "amenity": "cafe", "name": "Whittier Cafe", "id": 444986513, "building": "commercial" }, "geometry": { "type": "Polygon", "coordinates": [ [ [ -104.9667299, 39.753119 ], [ -104.9668352, 39.7531186 ], [ -104.9668344, 39.752968 ], [ -104.966729, 39.7529683 ], [ -104.9667299, 39.753119 ] ] ] } },
{ "type": "Feature", "properties": { "amenity": "cafe", "name": "Pigtrain Coffee", "id": 659529269, "building": null }, "geometry": { "type": "Polygon", "coordinates": [ [ [ -105.0002576, 39.7529168 ], [ -105.0002658, 39.7529231 ], [ -105.000277, 39.7529318 ], [ -105.0002879, 39.7529403 ], [ -105.000313, 39.7529597 ], [ -105.0003241, 39.7529683 ], [ -105.0003341, 39.752976 ], [ -105.0003417, 39.7529819 ], [ -105.0003148, 39.7530025 ], [ -105.0003043, 39.7530105 ], [ -105.0002938, 39.7530184 ], [ -105.0002668, 39.753039 ], [ -105.0002591, 39.7530331 ], [ -105.0002558, 39.7530355 ], [ -105.0002445, 39.7530268 ], [ -105.0002331, 39.7530179 ], [ -105.0002361, 39.7530157 ], [ -105.0002096, 39.752995 ], [ -105.0002059, 39.7529977 ], [ -105.0001978, 39.7529915 ], [ -105.0001906, 39.7529859 ], [ -105.0001939, 39.752983 ], [ -105.0001821, 39.752974 ], [ -105.0002119, 39.7529509 ], [ -105.0002111, 39.7529502 ], [ -105.0002216, 39.7529421 ], [ -105.0002319, 39.7529343 ], [ -105.0002333, 39.7529353 ], [ -105.0002576, 39.7529168 ] ] ] } },
{ "type": "Feature", "properties": { "amenity": "cafe", "name": "Acme Pizzeria", "id": 659541161, "building": null }, "geometry": { "type": "Polygon", "coordinates": [ [ [ -105.0003319, 39.7531883 ], [ -105.0003507, 39.7532028 ], [ -105.0003199, 39.7532263 ], [ -105.0003012, 39.7532118 ], [ -105.0003319, 39.7531883 ] ] ] } },
{ "type": "Feature", "properties": { "amenity": "cafe", "name": "Kaffe Landscap", "id": 812551276, "building": null }, "geometry": { "type": "Polygon", "coordinates": [ [ [ -105.000895, 39.7540891 ], [ -105.0008274, 39.7540378 ], [ -105.0007924, 39.7540114 ], [ -105.0006258, 39.7541415 ], [ -105.0006879, 39.7541886 ], [ -105.0007222, 39.7541618 ], [ -105.0007388, 39.7541744 ], [ -105.0007363, 39.7541875 ], [ -105.0007487, 39.7541889 ], [ -105.0007648, 39.7541907 ], [ -105.0008847, 39.7540971 ], [ -105.000895, 39.7540891 ] ] ] } },
{ "type": "Feature", "properties": { "amenity": "cafe", "name": "Intermission Cafe", "id": 1069790455, "building": null }, "geometry": { "type": "Polygon", "coordinates": [ [ [ -105.0013808, 39.7438709 ], [ -105.0012996, 39.7439064 ], [ -105.001361, 39.7439944 ], [ -105.001353, 39.7439985 ], [ -105.0013716, 39.7440236 ], [ -105.0014637, 39.7439838 ], [ -105.0014572, 39.7439755 ], [ -105.0014495, 39.7439657 ], [ -105.0014143, 39.743919 ], [ -105.0013808, 39.7438709 ] ] ] } },
{ "type": "Feature", "properties": { "amenity": "cafe", "name": "The Library Café", "id": 1145437992, "building": null }, "geometry": { "type": "Polygon", "coordinates": [ [ [ -105.0034562, 39.7433451 ], [ -105.0034408, 39.7433516 ], [ -105.003425, 39.7433583 ], [ -105.0034784, 39.7434311 ], [ -105.0034556, 39.7434571 ], [ -105.0034673, 39.7434732 ], [ -105.0034609, 39.7434761 ], [ -105.0034367, 39.7434869 ], [ -105.0034217, 39.7434935 ], [ -105.0033971, 39.7435047 ], [ -105.0033908, 39.7435075 ], [ -105.0033671, 39.7435182 ], [ -105.0033453, 39.7434894 ], [ -105.0033522, 39.7434864 ], [ -105.0033629, 39.7434817 ], [ -105.0033449, 39.7434577 ], [ -105.0033351, 39.7434621 ], [ -105.0033276, 39.7434655 ], [ -105.0033061, 39.7434377 ], [ -105.003287, 39.7434467 ], [ -105.0033074, 39.7434744 ], [ -105.0032996, 39.743478 ], [ -105.0032912, 39.7434818 ], [ -105.0033091, 39.7435052 ], [ -105.0033179, 39.7435013 ], [ -105.0033257, 39.7434978 ], [ -105.0033475, 39.743527 ], [ -105.0033197, 39.7435394 ], [ -105.0033051, 39.7435459 ], [ -105.0032679, 39.7435623 ], [ -105.0032424, 39.7435286 ], [ -105.0032221, 39.7435374 ], [ -105.0032455, 39.7435685 ], [ -105.0032476, 39.7435712 ], [ -105.0032514, 39.7435697 ], [ -105.0033349, 39.7436796 ], [ -105.0033448, 39.7436924 ], [ -105.0033589, 39.7437107 ], [ -105.003588, 39.7436084 ], [ -105.0036382, 39.743586 ], [ -105.0036086, 39.7435468 ], [ -105.0035545, 39.7434752 ], [ -105.0034562, 39.7433451 ] ] ] } },
{ "type": "Feature", "properties": { "amenity": "cafe", "name": "Logan House Coffee Co.", "id": 1242051509, "building": null }, "geometry": { "type": "Polygon", "coordinates": [ [ [ -104.8771866, 39.7528999 ], [ -104.8771791, 39.7528332 ], [ -104.877179, 39.7528267 ], [ -104.8771787, 39.7528058 ], [ -104.8771787, 39.7528003 ], [ -104.8771679, 39.7528003 ], [ -104.8770507, 39.7528002 ], [ -104.8769905, 39.7528002 ], [ -104.8769908, 39.752815 ], [ -104.8769855, 39.752815 ], [ -104.8769856, 39.7528997 ], [ -104.8770227, 39.7528997 ], [ -104.8771866, 39.7528999 ] ] ] } },
{ "type": "Feature", "properties": { "amenity": "cafe", "name": "Rosenberg's Bagels & Delicatessen", "id": 1242051510, "building": null }, "geometry": { "type": "Polygon", "coordinates": [ [ [ -104.8769856, 39.7528997 ], [ -104.8769855, 39.752815 ], [ -104.8769908, 39.752815 ], [ -104.8769905, 39.7528002 ], [ -104.876977, 39.7528002 ], [ -104.8768895, 39.7528002 ], [ -104.8768669, 39.7528002 ], [ -104.8768666, 39.7528655 ], [ -104.8768666, 39.7528713 ], [ -104.8768662, 39.7529661 ], [ -104.8768968, 39.7529662 ], [ -104.8770012, 39.7529664 ], [ -104.8770333, 39.7529665 ], [ -104.8770609, 39.7529665 ], [ -104.8770609, 39.7529341 ], [ -104.8770227, 39.7529341 ], [ -104.8770227, 39.7528997 ], [ -104.8769856, 39.7528997 ] ] ] } },
{ "type": "Feature", "properties": { "amenity": "cafe", "name": "Churreria de Madrid", "id": 1242051540, "building": null }, "geometry": { "type": "Polygon", "coordinates": [ [ [ -104.8775486, 39.7530304 ], [ -104.8776186, 39.7530243 ], [ -104.877617, 39.7530151 ], [ -104.8776263, 39.7530145 ], [ -104.8776203, 39.7529726 ], [ -104.8775419, 39.7529784 ], [ -104.8775486, 39.7530304 ] ] ] } },
{ "type": "Feature", "properties": { "amenity": "cafe", "name": "Starbucks", "id": 1315644245, "building": null }, "geometry": { "type": "Polygon", "coordinates": [ [ [ -105.0058286, 39.7445857 ], [ -105.0057786, 39.7446078 ], [ -105.0057772, 39.7446084 ], [ -105.0057533, 39.744619 ], [ -105.0057029, 39.7446413 ], [ -105.0057202, 39.7446644 ], [ -105.0057092, 39.7446693 ], [ -105.0056918, 39.744677 ], [ -105.0057057, 39.7446952 ], [ -105.0057096, 39.7447004 ], [ -105.0057152, 39.744698 ], [ -105.0057269, 39.7447135 ], [ -105.0057403, 39.7447314 ], [ -105.0057473, 39.7447285 ], [ -105.0057654, 39.744732 ], [ -105.0057681, 39.7447233 ], [ -105.0058039, 39.7447301 ], [ -105.0058006, 39.7447396 ], [ -105.0058162, 39.7447425 ], [ -105.0058197, 39.7447478 ], [ -105.0058577, 39.7447308 ], [ -105.0059203, 39.7447028 ], [ -105.005964, 39.7446832 ], [ -105.0059359, 39.7446442 ], [ -105.0059278, 39.7446334 ], [ -105.0059267, 39.7446319 ], [ -105.0058957, 39.7445905 ], [ -105.0058635, 39.7446047 ], [ -105.0058498, 39.7446108 ], [ -105.0058479, 39.7446116 ], [ -105.0058403, 39.7446014 ], [ -105.0058286, 39.7445857 ] ] ] } }
]
}
